,City,Temperature,Humidity,Longitude,Latitude,Cloudiness,Country,Windspeed,Date
0,cabo san lucas,82.53,44,-109.9124,22.8909,0,MX,12.66,1651882542
1,cockburn town,76.96,78,-71.1419,21.4612,40,TC,11.5,1651882543
2,rikitea,77.52,85,-134.9692,-23.1203,89,PF,14.85,1651882543
3,salalah,82.49,83,54.0924,17.0151,20,OM,1.14,1651882544
4,lac-megantic,37.35,66,-70.8823,45.5834,11,CA,2.89,1651882545
5,vaini,80.76,74,-175.2,-21.2,40,TO,8.05,1651882546
6,mataura,60.48,70,168.8643,-46.1927,96,NZ,3.36,1651882546
7,mastic beach,49.26,87,-72.8521,40.7668,100,US,10.0,1651882548
8,acapulco,82.22,74,-99.8901,16.8634,40,MX,6.91,1651882509
9,qaanaaq,15.64,85,-69.3632,77.484,100,GL,5.19,1651882549
10,avarua,80.46,75,-159.775,-21.2078,6,CK,9.75,1651882386
11,atuona,79.16,72,-139.0333,-9.8,20,PF,14.45,1651882550
12,bubaque,78.01,74,-15.8333,11.2833,15,GW,16.35,1651882551
13,esperance,56.25,73,121.9,-33.8667,0,AU,12.44,1651882552
14,kruisfontein,59.38,82,24.7314,-34.0033,97,ZA,8.01,1651882552
15,tasiilaq,24.96,64,-37.6368,65.6145,7,GL,3.51,1651882553
16,solotvyn,48.51,91,24.4221,48.7021,92,UA,3.85,1651882554
17,bredasdorp,56.53,90,20.0403,-34.5322,100,ZA,1.28,1651882555
18,honiara,87.6,65,159.95,-9.4333,11,SB,8.12,1651882555
19,ahipara,67.73,55,173.1667,-35.1667,0,NZ,1.95,1651882557
20,ushuaia,44.26,65,-68.3,-54.8,75,AR,8.05,1651882558
21,port alfred,63.18,87,26.891,-33.5906,92,ZA,3.0,1651882558
22,fort morgan,83.05,13,-103.8,40.2503,0,US,10.36,1651882559
23,nantucket,50.74,90,-70.0995,41.2835,100,US,4.61,1651882560
24,new norfolk,49.62,76,147.0587,-42.7826,100,AU,5.01,1651882560
25,itarema,76.75,88,-39.9167,-2.9248,97,BR,12.35,1651882561
26,dikson,19.06,94,80.5464,73.5069,100,RU,14.29,1651882562
27,soteapan,77.43,46,-94.8667,18.2333,6,MX,5.95,1651882562
28,klaksvik,32.92,62,-6.589,62.2266,63,FO,6.69,1651882563
29,wloszczowa,51.17,65,19.9659,50.8526,100,PL,3.38,1651882564
30,baryatino,43.23,77,34.521,54.3121,85,RU,6.08,1651882565
31,livingston,46.85,89,-3.5226,55.9029,0,GB,4.61,1651882565
32,albany,55.11,70,-73.9662,42.6001,100,US,3.51,1651882469
33,severnyy,42.84,52,36.5532,50.677,0,RU,4.47,1651882566
34,carnarvon,64.47,52,113.6333,-24.8667,100,AU,9.22,1651882567
35,puerto ayora,73.4,88,-90.3518,-0.7393,94,EC,8.46,1651882568
36,hirara,79.07,78,125.2833,24.8,40,JP,2.3,1651882568
37,talnakh,13.21,94,88.3972,69.4865,99,RU,2.26,1651882569
38,namibe,74.53,68,12.1522,-15.1961,0,AO,2.55,1651882570
39,kapaa,76.71,82,-159.319,22.0752,75,US,17.27,1651882571
40,sola,82.11,69,167.55,-13.8833,69,VU,20.11,1651882571
41,stokmarknes,40.66,80,14.9108,68.5646,79,NO,34.63,1651882572
42,ponta do sol,64.13,53,-17.1,32.6667,61,PT,3.94,1651882573
43,lagunas,74.25,89,-75.6753,-5.2269,67,PE,2.35,1651882574
44,iskitim,42.73,53,83.3045,54.6366,93,RU,19.42,1651882574
45,cape town,56.77,87,18.4232,-33.9258,75,ZA,16.11,1651882508
46,nedjo,61.12,78,35.5019,9.5046,30,ET,2.64,1651882576
47,kirakira,85.62,71,161.9205,-10.4544,23,SB,9.89,1651882576
48,nushki,79.52,14,66.0215,29.5542,0,PK,5.46,1651882577
49,upernavik,8.01,87,-56.1549,72.7868,3,GL,6.22,1651882565
50,natal,77.22,94,-35.2094,-5.795,75,BR,10.36,1651882578
51,lavrentiya,25.12,83,-171.0,65.5833,42,RU,5.68,1651882579
52,itoman,76.84,92,127.6694,26.1247,75,JP,11.5,1651882579
53,punta arenas,44.71,81,-70.9167,-53.15,100,CL,8.05,1651882580
54,ust-koksa,48.54,70,85.6108,50.2696,3,RU,2.59,1651882581
55,nautla,84.78,74,-96.7833,20.2167,13,MX,11.48,1651882581
56,sena madureira,77.47,74,-68.6569,-9.0656,85,BR,2.59,1651882582
57,guerrero negro,67.3,68,-114.0611,27.9769,4,MX,17.85,1651882583
58,tuktoyaktuk,30.2,86,-133.0374,69.4541,100,CA,8.05,1651882583
59,brovary,51.78,66,30.7667,50.5,69,UA,7.54,1651882586
60,caraballeda,82.36,80,-66.8522,10.6112,75,VE,2.3,1651882587
61,hasaki,68.4,77,140.8333,35.7333,95,JP,11.99,1651882587
62,kashin,40.93,75,37.6081,57.3592,77,RU,6.73,1651882588
63,chokurdakh,23.99,89,147.9167,70.6333,100,RU,3.85,1651882589
64,qingyuan,76.98,91,113.0333,23.7,100,CN,2.57,1651882589
65,clyde river,8.83,92,-68.5914,70.4692,0,CA,8.05,1651882590
66,yulara,55.24,47,130.9889,-25.2406,0,AU,16.11,1651882591
67,jamestown,53.76,84,-79.2353,42.097,100,US,13.8,1651882592
68,lethem,78.87,80,-59.7968,3.3803,90,GY,7.02,1651882592
69,oshikango,62.96,45,15.8833,-17.4,0,NA,7.23,1651882593
70,metro,77.02,90,105.3067,-5.1131,99,ID,2.53,1651882594
71,nemuro,47.34,89,145.575,43.3236,34,JP,17.87,1651882594
72,live oak,68.22,65,-121.9805,36.9836,75,US,11.5,1651882576
73,khatanga,12.15,89,102.5,71.9667,99,RU,18.88,1651882595
74,eyl,82.06,83,49.8164,7.9803,5,SO,12.26,1651882596
75,turayf,52.05,66,38.6637,31.6725,0,SA,9.22,1651882597
76,ayorou,94.64,14,0.9174,14.7308,97,NE,10.69,1651882597
77,lagoa,60.26,71,-27.9833,39.05,20,PT,5.12,1651882598
78,waipawa,63.1,60,175.5153,-41.4122,7,NZ,5.01,1651882599
79,kodiak,45.91,76,-152.4072,57.79,100,US,12.66,1651882599
80,austin,91.44,51,-97.7431,30.2672,0,US,10.36,1651882502
81,rudbar,84.83,15,62.6,30.15,28,AF,7.83,1651882601
82,butaritari,82.04,71,172.7902,3.0707,98,KI,11.54,1651882601
83,la ronge,55.62,82,-105.2842,55.1001,75,CA,12.66,1651882602
84,hermanus,54.81,86,19.2345,-34.4187,100,ZA,8.03,1651882603
85,rio gallegos,48.25,66,-69.2181,-51.6226,75,AR,12.66,1651882524
86,petropavlovsk-kamchatskiy,57.79,29,158.6483,53.0452,0,RU,4.47,1651882604
87,yining,72.81,79,114.5636,29.0361,100,CN,0.25,1651882604
88,ribeira grande,61.41,65,-28.7,38.5167,48,PT,3.89,1651882605
89,narsaq,37.62,98,-46.05,60.9167,100,GL,3.69,1651882606
90,angouleme,50.4,73,0.15,45.65,0,FR,3.44,1651882607
91,cherskiy,32.92,100,161.3,68.75,100,RU,4.59,1651882607
92,san patricio,85.24,64,-97.5169,28.017,1,US,17.98,1651882608
93,slave lake,44.58,81,-114.769,55.2834,100,CA,19.57,1651882508
94,nandikotkur,85.12,46,78.2667,15.8667,87,IN,6.17,1651882609
95,novouzensk,39.45,57,48.1431,50.4592,55,RU,9.91,1651882610
96,antalaha,73.63,88,50.2788,-14.9003,7,MG,4.94,1651882611
97,touros,77.79,90,-35.4608,-5.1989,77,BR,12.21,1651882611
98,puck,47.01,76,18.4084,54.7179,1,PL,8.37,1651882612
99,belaya gora,28.74,93,146.4167,68.5333,95,RU,2.04,1651882344
100,port keats,77.32,35,129.55,-14.25,6,AU,16.73,1651882613
101,samarai,83.82,76,150.6667,-10.6167,18,PG,10.07,1651882614
102,sao gabriel da cachoeira,73.85,98,-67.0892,-0.1303,90,BR,1.68,1651882615
103,byron bay,66.94,92,153.6167,-28.65,100,AU,7.72,1651882409
104,pevek,30.15,90,170.3133,69.7008,100,RU,0.6,1651882616
105,labuhan,80.22,86,112.2051,-6.8844,72,ID,5.88,1651882617
106,karratha,76.41,45,116.8463,-20.7377,2,AU,20.36,1651882617
107,sistranda,42.76,68,8.834,63.7256,77,NO,26.64,1651882618
108,alofi,80.49,83,-169.9187,-19.0595,23,NU,3.44,1651882619
109,nhulunbuy,84.81,65,136.7667,-12.2333,40,AU,18.41,1651882620
110,moerai,78.46,79,-151.3333,-22.4333,63,PF,10.8,1651882620
111,paamiut,31.12,97,-49.6678,61.994,86,GL,1.86,1651882621
112,springbok,46.06,97,17.8865,-29.6643,27,ZA,4.12,1651882622
113,russell,76.87,50,-85.1999,32.3502,40,US,8.05,1651882622
114,faanui,81.75,72,-151.75,-16.4833,2,PF,3.2,1651882623
115,sao felix do xingu,72.72,97,-51.995,-6.6447,63,BR,2.95,1651882624
116,malmesbury,54.77,89,18.7271,-33.4608,96,ZA,6.87,1651882624
117,saldanha,57.99,82,17.9442,-33.0117,40,ZA,20.07,1651882626
118,mar del plata,58.53,94,-57.5575,-38.0023,37,AR,3.0,1651882627
119,sioux lookout,62.67,29,-91.917,50.1001,75,CA,6.91,1651882517
120,kalmunai,80.94,82,81.8167,7.4167,93,LK,1.92,1651882628
121,port elizabeth,61.32,87,25.5701,-33.918,0,ZA,11.5,1651882629
122,iqaluit,15.53,79,-68.5145,63.7506,75,CA,14.97,1651882629
123,sidmouth,55.62,91,-3.2397,50.6909,75,GB,8.05,1651882630
124,yellowknife,52.32,54,-114.3525,62.456,75,CA,19.57,1651882631
125,constitucion,55.29,80,-72.4167,-35.3333,2,CL,11.14,1651882631
126,okhotsk,33.82,77,143.3,59.3833,100,RU,11.36,1651882556
127,bluff,60.8,76,168.3333,-46.6,99,NZ,9.37,1651882633
128,arraial do cabo,69.76,78,-42.0278,-22.9661,20,BR,5.75,1651882572
129,quelimane,73.35,100,36.8883,-17.8786,20,MZ,0.0,1651882634
130,yeppoon,74.98,66,150.7333,-23.1333,99,AU,10.16,1651882635
131,hobart,51.15,89,147.3294,-42.8794,75,AU,11.5,1651882403
132,coquimbo,56.93,88,-71.3436,-29.9533,100,CL,4.61,1651882636
133,puerto escondido,83.23,74,-97.0667,15.85,0,MX,6.91,1651882636
134,severo-yeniseyskiy,41.49,75,93.0408,60.3725,84,RU,8.1,1651882637
135,namatanai,85.5,65,152.4333,-3.6667,86,PG,10.42,1651882638
136,airai,67.75,75,125.4092,-8.9266,41,TL,3.98,1651882551
137,vao,75.51,65,167.4833,-22.6667,70,NC,18.54,1651882639
138,hermiston,62.74,78,-119.2895,45.8404,100,US,4.61,1651882632
139,huarmey,66.29,85,-78.1522,-10.0681,6,PE,8.66,1651882640
140,nakusp,55.74,47,-117.8023,50.2499,93,CA,1.14,1651882641
141,castro,53.58,93,-50.0119,-24.7911,6,BR,4.09,1651882642
142,bambous virieux,73.65,68,57.7575,-20.3428,20,MU,6.91,1651882643
143,haines junction,46.35,31,-137.5108,60.7522,95,CA,10.36,1651882624
144,nikolskoye,49.05,95,30.7861,59.7035,21,RU,5.37,1651882644
145,amapa,73.13,99,-52.0,1.0,100,BR,2.48,1651882645
146,amberley,59.5,92,-84.428,39.2048,100,US,9.22,1651882645
147,manacor,59.99,61,3.2096,39.5696,25,ES,5.12,1651882646
148,fortuna,56.17,90,-124.1573,40.5982,100,US,11.95,1651882647
149,sungaipenuh,66.74,95,101.3833,-2.0833,100,ID,1.7,1651882647
150,katsuura,64.71,79,140.3,35.1333,97,JP,13.69,1651882648
151,east london,67.48,75,27.9116,-33.0153,96,ZA,12.84,1651882649
152,lata,56.07,75,-8.3327,40.1629,39,PT,2.91,1651882649
153,barkot,61.23,50,78.2,30.8167,0,IN,4.88,1651882651
154,pangnirtung,10.8,99,-65.7125,66.1451,97,CA,2.62,1651882651
155,ilulissat,24.82,68,-51.1,69.2167,20,GL,0.0,1651882652
156,longyearbyen,21.04,73,15.6401,78.2186,40,SJ,1.14,1651882653
157,tucuman,55.4,88,-65.2226,-26.8241,76,AR,2.3,1651882653
158,vanino,53.38,42,140.2543,49.0869,38,RU,5.19,1651882654
159,north bend,54.73,94,-124.2243,43.4065,100,US,14.97,1651882516
160,nome,32.07,80,-165.4064,64.5011,100,US,13.8,1651882563
161,luau,69.76,66,22.2247,-10.7073,91,AO,2.59,1651882656
162,sao filipe,73.49,78,-24.4956,14.8961,1,CV,14.38,1651882657
163,wahiawa,75.2,69,-158.0236,21.5028,100,US,11.5,1651882436
164,nizhnyaya tavda,30.04,85,66.1725,57.6731,20,RU,7.85,1651882662
165,djambala,69.69,91,14.7533,-2.5447,100,CG,3.29,1651882663
166,mosalsk,43.43,78,34.9817,54.4881,87,RU,6.85,1651882664
167,kieta,84.87,71,155.6333,-6.2167,15,PG,5.35,1651882665
168,busselton,57.72,59,115.3333,-33.65,0,AU,7.76,1651882666
169,sitka,48.09,66,-135.33,57.0531,40,US,5.75,1651882667
170,sept-iles,36.12,41,-66.3821,50.2001,40,CA,6.91,1651882667
171,lyuban,49.66,69,28.0048,52.7985,100,BY,9.17,1651882668
172,razole,81.46,86,81.8333,16.4833,95,IN,1.3,1651882669
173,lebu,52.34,92,-73.65,-37.6167,75,CL,6.98,1651882619
174,epe,73.65,95,3.9834,6.5841,100,NG,4.54,1651882670
175,nyurba,37.96,93,118.3319,63.2842,100,RU,3.96,1651882671
176,christchurch,63.27,75,172.6333,-43.5333,60,NZ,5.75,1651882467
177,dengzhou,54.34,64,120.7508,37.8086,80,CN,17.63,1651882672
178,vallenar,63.91,66,-70.7581,-28.5708,100,CL,1.66,1651882673
179,sorland,40.91,81,12.6934,67.667,65,NO,42.32,1651882673
180,tuatapere,61.9,76,167.6833,-46.1333,100,NZ,7.47,1651882674
181,hithadhoo,83.12,77,73.0833,-0.6,81,MV,15.21,1651882675
182,along,69.26,89,94.7667,28.1667,7,IN,1.68,1651882675
183,pirapora do bom jesus,61.16,90,-47.0022,-23.3969,9,BR,7.67,1651882676
184,yeniseysk,50.7,59,92.1703,58.4497,49,RU,11.65,1651882677
185,geraldton,59.41,51,114.6,-28.7667,0,AU,16.11,1651882654
186,nizhnevartovsk,24.82,100,76.5531,60.9344,100,RU,22.37,1651882678
187,saint-philippe,71.19,80,55.7679,-21.3585,46,RE,14.23,1651882679
188,harper,81.3,83,-7.7169,4.375,98,LR,8.95,1651882679
189,thompson,56.12,81,-97.8558,55.7435,100,CA,11.43,1651882390
190,fuquay-varina,72.19,80,-78.8,35.5843,100,US,8.72,1651882461
191,bali,81.23,82,115.0,-8.5,84,ID,3.85,1651882681
192,muniz freire,65.08,97,-41.4131,-20.4642,94,BR,3.24,1651882682
193,joshimath,59.59,73,79.5667,30.5667,81,IN,2.82,1651882683
194,saskylakh,16.25,86,114.0833,71.9167,86,RU,20.45,1651882683
195,norman wells,42.84,56,-126.8329,65.282,100,CA,3.44,1651882684
196,baykit,41.14,86,96.37,61.67,83,RU,3.49,1651882685
197,svetlaya,50.43,54,138.3297,46.5389,100,RU,0.78,1651882686
198,georgetown,84.13,79,100.3354,5.4112,20,MY,0.0,1651882402
199,torbay,34.92,92,-52.7314,47.6666,100,CA,11.5,1651882687
200,tabou,81.43,82,-7.3528,4.423,85,CI,7.92,1651882688
201,biak,80.69,77,122.8766,-0.9131,84,ID,0.38,1651882688
202,urumqi,56.35,82,87.6005,43.801,0,CN,4.47,1651882682
203,kahului,80.44,65,-156.47,20.8947,0,US,29.93,1651882485
204,sao joao da barra,71.73,72,-41.0511,-21.6403,19,BR,13.4,1651882690
205,remontnoye,43.21,50,43.6501,46.5614,91,RU,14.9,1651882690
206,progreso,89.11,81,-89.6667,21.2833,29,MX,13.8,1651882691
207,novo aripuana,74.66,97,-60.3797,-5.1206,100,BR,2.08,1651882692
208,stromness,43.88,86,-3.296,58.965,41,GB,5.01,1651882693
209,vagur,42.21,59,-6.8119,61.4732,20,FO,4.5,1651882693
210,alta floresta,73.89,88,-56.0861,-9.8756,51,BR,2.46,1651882694
211,tiksi,18.14,84,128.8694,71.6872,94,RU,22.17,1651882615
212,san cristobal,66.38,99,-72.225,7.7669,93,VE,2.98,1651882564
213,atikokan,55.98,55,-91.6216,48.7555,85,CA,8.55,1651882696
214,hilo,73.17,84,-155.09,19.7297,100,US,8.05,1651882697
215,lorengau,85.59,72,147.2712,-2.0226,88,PG,9.98,1651882698
216,trairi,75.45,95,-39.2689,-3.2778,100,BR,7.67,1651882698
217,kuryk,59.65,67,51.65,43.2,3,KZ,17.47,1651882699
218,avera,72.03,78,-82.5271,33.194,57,US,14.14,1651882700
219,mount isa,67.77,34,139.5,-20.7333,0,AU,16.11,1651882645
220,burnie,57.06,70,145.9167,-41.0667,66,AU,16.2,1651882701
221,akdepe,68.09,37,59.3788,42.0551,19,TM,5.86,1651882702
222,kloulklubed,81.1,81,134.2556,7.0419,70,PW,14.88,1651882703
223,coari,75.38,96,-63.1414,-4.085,96,BR,2.17,1651882703
224,yumen,55.76,13,97.2,40.2833,100,CN,11.86,1651882629
225,riyadh,80.74,28,46.7219,24.6877,33,SA,6.8,1651882704
226,san jose,71.78,61,-121.895,37.3394,40,US,19.57,1651882468
227,palmer,56.39,61,-72.3287,42.1584,100,US,6.91,1651882651
228,acarau,77.34,87,-40.12,-2.8856,98,BR,12.95,1651882521
229,saint george,91.89,10,-113.5841,37.1041,0,US,9.22,1651882567
230,williston,77.83,18,-103.618,48.147,20,US,4.0,1651882707
231,barrow,21.22,86,-156.7887,71.2906,100,US,18.41,1651882708
232,santa maria da vitoria,81.12,48,-44.1886,-13.3947,66,BR,3.0,1651882709
233,tombouctou,87.87,16,-3.0,20.0,12,ML,7.47,1651882710
234,moose factory,30.18,74,-80.6094,51.2585,0,CA,8.05,1651882710
235,sambava,73.44,91,50.1667,-14.2667,8,MG,7.94,1651882711
236,severo-kurilsk,42.98,87,156.125,50.6789,82,RU,8.21,1651882712
237,elliot lake,51.46,39,-82.6331,46.3834,2,CA,5.97,1651882713
238,cantagallo,77.58,97,-73.9196,7.376,71,CO,1.54,1651882713
239,nizhniy kuranakh,34.25,81,125.4869,58.8353,60,RU,5.35,1651882714
240,samsun,52.75,84,36.3333,41.25,100,TR,16.11,1651882483
241,ust-nera,31.77,81,143.2,64.5667,100,RU,5.88,1651882719
242,urucara,75.18,97,-57.76,-2.5364,90,BR,1.77,1651882720
243,canto do buriti,77.5,38,-42.9444,-8.11,7,BR,3.31,1651882721
244,aykhal,24.19,77,111.5,66.0,100,RU,2.82,1651882722
245,bathsheba,79.41,83,-59.5167,13.2167,40,BB,11.5,1651882722
246,benalla,49.75,63,145.9833,-36.55,70,AU,8.95,1651882723
247,zhezkazgan,51.13,38,67.7144,47.8043,42,KZ,19.24,1651882724
248,nisia floresta,77.38,93,-35.2086,-6.0911,46,BR,7.47,1651882725
249,itapolis,61.23,79,-48.8128,-21.5956,0,BR,7.2,1651882726
250,sangar,30.0,93,127.4739,63.9242,89,RU,2.75,1651882727
251,kodinsk,45.21,70,99.1844,58.6881,11,RU,5.21,1651882727
252,yerbogachen,42.66,72,108.0108,61.2767,62,RU,7.38,1651882728
253,kharhial,82.17,31,82.7667,20.2833,4,IN,0.81,1651882729
254,toowoomba,61.25,88,151.9667,-27.55,100,AU,1.97,1651882730
255,mnogovershinnyy,31.73,96,139.9242,53.9353,88,RU,8.61,1651882730
256,taos,75.47,12,-105.5731,36.4072,0,US,19.57,1651882662
257,sao jose da coroa grande,78.35,80,-35.1478,-8.8978,71,BR,8.21,1651882731
258,rudnichnyy,37.83,81,52.4703,59.617,90,RU,8.23,1651882732
259,plettenberg bay,60.85,86,23.3716,-34.0527,84,ZA,5.53,1651882733
260,rudnogorsk,45.43,56,103.7519,57.2639,55,RU,6.53,1651882733
261,ardahan,38.37,99,42.7022,41.1087,100,TR,2.51,1651882734
262,college,49.21,66,-147.8028,64.8569,75,US,11.5,1651882660
263,sault sainte marie,58.35,40,-84.3333,46.5168,0,CA,6.91,1651882677
264,camacha,60.22,82,-16.3333,33.0833,20,PT,18.41,1651882736
265,lompoc,64.78,72,-120.4579,34.6391,0,US,30.0,1651882736
266,ashta,85.5,28,76.7167,23.0167,39,IN,3.62,1651882737
267,egvekinot,23.79,94,-179.1667,66.3167,100,RU,6.31,1651882738
268,vostok,46.02,70,135.8833,46.4856,100,RU,4.05,1651882738
269,muhos,44.38,75,25.9931,64.808,78,FI,8.77,1651882739
270,calama,55.89,26,-68.9333,-22.4667,0,CL,4.61,1651882663
271,souillac,73.78,68,57.5167,-20.5167,20,MU,6.91,1651882740
272,gornji milanovac,51.89,74,20.45,44.0333,100,RS,0.43,1651882744
273,pacific grove,60.66,81,-121.9166,36.6177,20,US,10.36,1651882745
274,mbandaka,70.5,97,18.2603,0.0487,97,CD,3.4,1651882746
275,rockland,50.22,93,-74.0496,41.1668,100,US,6.06,1651882747
276,faya,63.12,62,42.4509,18.3851,14,SA,1.66,1651882747
277,nalut,62.85,60,10.85,30.3333,0,LY,11.36,1651882748
278,river falls,69.42,66,-92.6238,44.8614,16,US,6.13,1651882576
279,dom pedrito,56.59,90,-54.6731,-30.9828,95,BR,2.13,1651882749
280,morant bay,82.02,86,-76.4093,17.8815,13,JM,7.16,1651882750
281,roald,41.9,75,6.1333,62.5833,75,NO,10.36,1651882750
282,shingu,66.51,78,135.9833,33.7333,92,JP,6.58,1651882751
283,vanimo,84.76,71,141.3028,-2.6741,83,PG,6.64,1651882752
284,eureka,56.21,80,-124.1637,40.8021,100,US,8.99,1651882753
285,enshi,72.28,82,109.4833,30.3,94,CN,0.65,1651882753
286,nelidovo,50.4,67,32.7774,56.2211,99,RU,8.14,1651882754
287,ballina,66.96,97,153.5667,-28.8667,100,AU,8.37,1651882755
288,ashland,52.14,98,-82.2665,40.8167,100,US,13.82,1651882606
289,pinega,34.09,96,43.3936,64.7001,50,RU,6.4,1651882756
290,kabelvag,44.53,83,14.4817,68.2114,81,NO,41.63,1651882757
291,sao francisco,77.45,62,-44.8644,-15.9486,94,BR,4.03,1651882758
292,zell am see,51.24,51,12.7944,47.3256,100,AT,0.83,1651882759
293,puerto colombia,78.89,84,-74.9547,10.9878,100,CO,3.36,1651882759
294,duzce,46.9,94,31.1639,40.8389,52,TR,0.31,1651882760
295,nzega,54.37,95,29.5564,-2.479,100,RW,3.87,1651882761
296,atambua,79.07,72,124.8925,-9.1061,44,ID,4.47,1651882762
297,bonthe,80.67,85,-12.505,7.5264,24,SL,6.51,1651882762
298,richards bay,64.27,83,32.0377,-28.783,0,ZA,5.28,1651882638
299,kabare,61.11,97,28.8242,-2.4683,100,CD,1.07,1651882764
300,guilin,68.11,91,110.2864,25.2819,96,CN,1.28,1651882764
301,bengkulu,76.42,87,102.2655,-3.8004,97,ID,5.35,1651882765
302,balkanabat,65.44,76,54.3671,39.5108,46,TM,7.25,1651882766
303,los llanos de aridane,59.13,73,-17.9182,28.6585,75,ES,10.36,1651882767
304,conakry,81.12,74,-13.6773,9.538,54,GN,5.55,1651882767
305,gallup,79.07,9,-108.7426,35.5281,0,US,17.27,1651882549
306,atar,85.57,12,-13.0499,20.5169,1,MR,6.22,1651882768
307,pangai,80.71,74,-174.35,-19.8,75,TO,4.61,1651882769
308,saint-pierre,70.84,68,55.4781,-21.3393,0,RE,4.61,1651882770
309,tibati,68.49,92,12.6333,6.4667,96,CM,3.76,1651882770
310,moron,63.0,90,-58.6198,-34.6534,0,AR,3.94,1651882771
311,chernaya kholunitsa,35.83,83,51.7154,58.8511,94,RU,6.58,1651882772
312,les cayes,77.47,81,-73.75,18.2,3,HT,5.08,1651882772
313,myski,60.33,45,87.8014,53.709,77,RU,11.86,1651882773
314,vila,49.69,78,-8.1588,42.0304,55,PT,4.36,1651882774
315,beian,42.87,75,9.5683,63.6559,75,NO,23.4,1651882775
316,chumikan,37.98,91,135.315,54.7183,98,RU,14.32,1651882775
317,rajula,82.44,53,71.4333,21.05,0,IN,7.87,1651882776
318,kassala,86.81,39,36.4,15.451,2,SD,10.27,1651882777
319,cayenne,78.1,1,-52.3333,4.9333,100,GF,2.3,1651882778
320,malakal,83.88,48,31.6605,9.5334,68,SS,3.94,1651882778
321,manta,80.38,83,-80.7333,-0.95,75,EC,1.14,1651882779
322,vila velha,76.95,69,-40.2925,-20.3297,75,BR,12.66,1651882780
323,salekhard,-0.4,93,66.6019,66.53,6,RU,1.39,1651882780
324,buritizeiro,72.39,71,-44.9622,-17.3511,19,BR,4.36,1651882781
325,hamilton,60.17,95,-84.5333,39.1834,100,US,9.22,1651882579
326,vanavara,41.97,71,102.2797,60.34,68,RU,4.32,1651882782
327,kudat,84.13,84,116.8477,6.8837,20,MY,5.75,1651882783
328,caravelas,74.66,87,-39.2481,-17.7125,77,BR,0.76,1651882784
329,hedaru,69.51,90,37.9,-4.5,100,TZ,5.14,1651882785
330,luderitz,56.23,88,15.1594,-26.6481,2,NA,14.94,1651882785
331,baiao,73.74,98,-49.6717,-2.7906,74,BR,1.45,1651882786
332,chinsali,58.51,97,32.0816,-10.5414,48,ZM,4.0,1651882787
333,carutapera,76.14,93,-46.02,-1.195,49,BR,6.53,1651882788
334,presidente medici,73.63,86,-61.9014,-11.1753,6,BR,2.06,1651882788
335,olafsvik,38.12,94,-23.7142,64.8945,99,IS,18.61,1651882789
336,havelock,74.64,86,-76.9013,34.8791,75,US,21.85,1651882790
337,techiman,71.17,90,-1.9414,7.5862,100,GH,2.04,1651882791
338,zhuanghe,56.48,21,122.9911,39.7008,42,CN,18.21,1651882791
339,buraydah,73.85,26,43.975,26.326,0,SA,11.74,1651882792
340,utete,70.59,96,38.758,-7.986,73,TZ,2.19,1651882793
341,cidreira,62.11,69,-50.2056,-30.1811,52,BR,1.25,1651882794
342,kaitangata,61.61,65,169.8464,-46.2817,89,NZ,4.18,1651882575
343,nakonde,54.52,97,32.745,-9.3421,84,ZM,3.89,1651882795
344,victoria,77.63,81,114.1577,22.2855,100,HK,5.01,1651882611
345,eufaula,79.86,54,-85.1455,31.8913,16,US,11.5,1651882644
346,fort nelson,53.19,30,-122.7002,58.8053,100,CA,13.8,1651882796
347,kailua,77.77,74,-157.7394,21.4022,100,US,14.97,1651882749
348,waiuku,67.35,77,174.75,-37.25,3,NZ,3.36,1651882798
349,bow island,66.15,19,-111.3684,49.8668,28,CA,31.07,1651882799
350,mahebourg,73.69,68,57.7,-20.4081,20,MU,6.91,1651882799
351,codrington,55.45,85,141.9667,-38.2667,83,AU,13.18,1651882800
352,werota,72.55,29,37.7,11.9167,7,ET,3.38,1651882801
353,hefei,75.22,57,117.2808,31.8639,0,CN,6.71,1651882802
354,san andres,82.42,83,-81.7006,12.5847,40,CO,5.75,1651882803
355,lasa,51.03,96,10.7002,46.6166,100,IT,3.62,1651882803
356,westport,50.83,94,-73.3579,41.1415,100,US,5.75,1651882648
357,nouadhibou,66.18,82,-17.0347,20.931,0,MR,13.8,1651882804
358,teluknaga,80.83,89,106.6381,-6.0989,20,ID,5.75,1651882805
359,hun,65.97,64,15.9477,29.1268,94,LY,15.59,1651882806
360,portland,55.67,86,-122.6762,45.5234,88,US,11.01,1651882739
361,chubbuck,65.57,42,-112.4661,42.9208,40,US,11.01,1651882807
362,viedma,58.48,60,-62.9967,-40.8135,80,AR,8.5,1651882808
363,finschhafen,85.37,69,147.8681,-6.6024,36,PG,9.37,1651882808
364,cruzeiro do sul,56.79,92,-51.9853,-29.5128,84,BR,0.96,1651882809
365,varkaus,41.31,91,27.873,62.3153,66,FI,6.91,1651882810
366,madera,83.28,32,-119.8343,37.1666,15,US,8.68,1651882810
367,sinnar,91.15,26,33.5672,13.5691,39,SD,9.48,1651882811
368,bonavista,32.5,79,-53.1147,48.6499,100,CA,22.24,1651882812
369,hammond,47.95,81,-87.5,41.5834,100,US,17.27,1651882813
370,cururupu,74.41,95,-44.8683,-1.8283,83,BR,3.4,1651882745
371,gisborne,62.73,65,178.0042,-38.6533,9,NZ,3.18,1651882814
372,kavaratti,84.72,71,72.642,10.5669,93,IN,11.92,1651882814
373,boone,64.96,78,-92.3335,39.0334,93,US,9.89,1651882815
374,qom,69.31,28,50.8764,34.6401,50,IR,1.72,1651882816
375,ligayan,83.93,77,119.4706,4.6533,91,PH,10.18,1651882817
376,maua,58.64,86,-46.4614,-23.6678,62,BR,5.95,1651882818
377,kachiry,42.33,53,76.1036,53.0675,71,KZ,15.48,1651882818
378,leningradskiy,23.32,90,178.4167,69.3833,100,RU,8.7,1651882819
379,sechura,70.36,73,-80.8222,-5.5569,29,PE,16.44,1651882820
380,dubai,86.16,29,55.3047,25.2582,0,AE,11.5,1651882638
381,safaga,73.02,40,33.9365,26.7292,0,EG,13.96,1651882821
382,rocha,55.4,89,-54.3333,-34.4833,2,UY,1.68,1651882526
383,shache,70.29,34,77.2406,38.4167,100,CN,10.47,1651882569
384,zlutice,45.52,85,13.163,50.0919,96,CZ,3.47,1651882822
385,kaoma,60.04,78,24.8,-14.7833,9,ZM,5.44,1651882823
386,tual,85.17,72,132.75,-5.6667,100,ID,21.21,1651882740
387,chuy,57.76,84,-53.4616,-33.6971,0,UY,2.44,1651882824
388,barras,75.79,88,-42.2944,-4.2444,96,BR,4.09,1651882825
389,shahr-e babak,61.14,37,55.1186,30.1165,14,IR,6.76,1651882825
390,dandong,58.17,23,124.3947,40.1292,25,CN,17.29,1651882826
391,malanje,64.49,84,16.341,-9.5402,75,AO,0.78,1651882827
392,mogadouro,50.5,59,-6.7119,41.3403,53,PT,5.75,1651882827
393,thap than,84.7,83,99.8917,15.4606,100,TH,4.23,1651882828
394,north myrtle beach,75.06,88,-78.68,33.816,100,US,20.71,1651882618
395,kyzyl,54.5,56,94.45,51.7,3,RU,3.33,1651882829
396,pimentel,65.25,86,-79.9342,-6.8367,22,PE,12.53,1651882830
397,provideniya,34.34,70,-173.3,64.3833,12,RU,8.5,1651882831
398,mlowo,55.31,94,32.9833,-9.0,94,TZ,3.15,1651882832
399,bahia honda,79.93,76,-83.1592,22.9036,38,CU,3.29,1651882832
400,halifax,44.37,63,-63.5724,44.6453,77,CA,5.01,1651882547
401,sesvete,56.71,85,16.1164,45.8311,0,HR,2.3,1651882833
402,phalaborwa,63.68,49,31.1411,-23.943,0,ZA,2.84,1651882834
403,gisors,51.84,89,1.7801,49.2818,85,FR,5.88,1651882835
404,surt,64.47,84,16.5887,31.2089,28,LY,12.93,1651882835
405,pemba,74.77,86,40.5178,-12.974,19,MZ,11.07,1651882836
406,cabuyaro,75.0,90,-72.794,4.2817,78,CO,1.03,1651882837
407,cedar city,79.77,11,-113.0619,37.6775,0,US,19.57,1651882600
408,belyy yar,49.86,56,91.3903,53.6039,0,RU,4.47,1651882838
409,chifeng,47.91,14,118.9636,42.2683,37,CN,13.98,1651882839
410,santa cruz,67.46,73,-63.1667,-17.8,0,BO,3.44,1651882827
411,black river,79.5,79,-77.8487,18.0264,22,JM,4.23,1651882840
412,groa,40.48,99,8.7167,62.65,100,NO,6.29,1651882841
413,vestmannaeyjar,41.54,65,-20.2734,63.4427,67,IS,15.08,1651882841
414,carora,76.28,78,-70.0827,10.1755,100,VE,0.87,1651882843
415,makakilo city,79.54,59,-158.0858,21.3469,75,US,19.57,1651882843
416,massagno,53.29,90,8.9453,46.0156,75,CH,3.44,1651882844
417,gravdal,39.99,83,13.5031,68.1214,70,NO,45.39,1651882845
418,kauhajoki,46.38,78,22.1833,62.4333,42,FI,10.74,1651882845
419,santa marta,81.9,79,-74.199,11.2408,100,CO,8.05,1651882846
420,kerema,84.02,73,145.7785,-7.9631,61,PG,4.81,1651882847
421,bulungu,73.54,75,18.6,-4.55,96,CD,1.23,1651882847
422,arlit,94.3,13,7.3853,18.7369,100,NE,22.1,1651882848
423,ancud,52.14,91,-73.8203,-41.8697,100,CL,10.92,1651882571
424,bilibino,33.08,99,166.4372,68.0546,100,RU,6.67,1651882849
425,tilichiki,29.46,98,166.1,60.4667,100,RU,5.82,1651882850
426,guanaja,82.08,85,-85.9,16.4,95,HN,27.22,1651882851
427,bitam,69.44,99,11.5007,2.076,100,GA,2.57,1651882851
428,saint-joseph,70.18,76,55.6167,-21.3667,35,RE,13.69,1651882852
429,general pico,60.49,45,-63.7568,-35.6566,0,AR,7.07,1651882853
430,kungurtug,45.81,55,97.5228,50.5994,11,RU,0.54,1651882665
431,port hedland,77.05,41,118.5667,-20.3167,2,AU,20.71,1651882854
432,edgewater,84.2,48,-80.9023,28.9889,20,US,5.75,1651882855
433,san quintin,67.23,62,-115.95,30.4833,1,MX,13.02,1651882856
434,wegorzewo,42.78,92,21.7372,54.2157,3,PL,4.03,1651882857
435,hualmay,65.01,87,-77.6139,-11.0964,6,PE,9.33,1651882858
436,itaituba,77.95,86,-55.9836,-4.2761,95,BR,1.77,1651882858
437,eirunepe,75.88,83,-69.8736,-6.6603,94,BR,2.33,1651882859
438,komsomolskiy,63.32,63,71.7189,40.4272,30,UZ,0.0,1651882705
439,grimshaw,40.62,87,-117.6027,56.1834,100,CA,18.41,1651882860
440,kimbe,88.3,60,150.1429,-5.5502,45,PG,1.61,1651882861
441,kalakamati,59.58,48,27.3121,-20.5929,3,BW,6.53,1651882862
442,conde,72.86,94,-34.9075,-7.2597,75,BR,9.22,1651882862
443,mount gambier,54.97,86,140.7667,-37.8333,78,AU,9.4,1651882863
444,tocopilla,64.4,76,-70.1979,-22.092,31,CL,4.41,1651882864
445,golcuv jenikov,52.9,88,15.4769,49.8163,0,CZ,2.3,1651882865
446,dunedin,59.81,67,170.5036,-45.8742,94,NZ,8.01,1651882866
447,pisco,66.25,82,-76.2167,-13.7,0,PE,13.8,1651882741
448,bethel,51.24,89,-73.414,41.3712,100,US,4.61,1651882642
449,nieuw amsterdam,78.91,89,-55.0833,5.8833,40,SR,2.3,1651882867
450,basco,82.98,75,121.9702,20.4487,98,PH,13.53,1651882868
451,muisne,77.52,83,-80.0333,0.6,60,EC,7.2,1651882869
452,tianpeng,76.69,52,103.9393,30.9866,19,CN,2.98,1651882869
453,morehead,56.91,90,-87.1764,37.2711,100,US,10.36,1651882870
454,the valley,78.66,71,-63.0578,18.217,26,AI,16.08,1651882871
455,ust-maya,40.15,63,134.5333,60.4167,12,RU,9.75,1651882871
456,indian head,57.78,90,-77.1622,38.6001,100,US,0.0,1651882872
457,magadan,34.54,97,150.8,59.5667,100,RU,21.23,1651882873
458,lucea,80.85,73,-78.1736,18.451,20,JM,2.46,1651882874
459,vieste,61.29,84,16.175,41.8825,97,IT,17.25,1651882874
460,dharchula,64.72,52,80.5333,29.85,25,IN,5.37,1651882875
461,goundi,85.55,48,17.366,9.3627,100,TD,9.04,1651882876
462,dingle,84.0,74,122.6711,10.9995,27,PH,11.12,1651882799
463,denpasar,81.72,88,115.2167,-8.65,20,ID,2.3,1651882877
464,jiazi,73.76,74,116.067,22.8779,94,CN,10.85,1651882877
465,dromolaxia,60.8,56,33.586,34.8761,0,CY,4.61,1651882878
466,anadyr,33.49,80,177.4833,64.75,75,RU,11.18,1651882879
467,lukovetskiy,34.02,98,41.9211,64.2956,50,RU,4.83,1651882880
468,oranjestad,80.55,83,-70.027,12.524,20,AW,13.8,1651882780
469,serebryansk,55.8,61,83.2892,49.6925,0,KZ,3.44,1651882881
470,cap-aux-meules,37.42,81,-61.8597,47.3821,75,CA,11.5,1651882882
471,kushima,70.29,82,131.2333,31.4583,67,JP,6.29,1651882882
472,gafanha da encarnacao,54.01,72,-8.733,40.6181,37,PT,2.19,1651882883
473,victor harbor,60.01,67,138.6167,-35.5667,92,AU,14.36,1651882884
474,mashhad,66.34,63,59.6062,36.297,0,IR,0.0,1651882884
475,gambela,74.34,79,34.5833,8.25,34,ET,4.5,1651882885
476,carmo do rio claro,60.93,83,-46.1189,-20.9719,14,BR,2.46,1651882886
477,deputatskiy,23.05,89,139.9,69.3,98,RU,4.38,1651882887
478,oussouye,75.29,53,-16.5469,12.485,1,SN,10.89,1651882888
479,yuli,81.7,61,10.2744,9.6989,99,NG,10.85,1651882889
480,teya,44.24,74,92.6267,60.3778,63,RU,7.45,1651882883
481,te anau,60.49,74,167.7167,-45.4167,98,NZ,5.06,1651882890
482,bucerias,78.78,73,-105.3333,20.75,20,MX,10.36,1651882863
483,kavieng,85.6,68,150.7967,-2.5744,78,PG,14.88,1651882891
484,presidente olegario,69.73,68,-46.4181,-18.4178,45,BR,3.09,1651882892
485,trelew,61.0,54,-65.3051,-43.249,87,AR,16.75,1651882601
486,husavik,33.6,70,-17.3389,66.0449,54,IS,10.16,1651882799
487,kamenka,39.07,60,42.7678,51.3223,2,RU,6.08,1651882618
488,varhaug,45.57,92,5.6457,58.6147,100,NO,17.52,1651882894
489,saint-louis,89.24,21,-15.0,16.3333,0,SN,15.17,1651882894
490,banjarmasin,80.74,82,114.591,-3.3244,75,ID,3.76,1651882825
491,dale,57.74,94,-86.99,38.1689,100,US,13.8,1651882896
492,thinadhoo,83.66,76,72.9333,0.5333,60,MV,15.05,1651882897
493,pochutla,82.81,50,-96.4661,15.7432,1,MX,6.08,1651882660
494,nikolayevsk-na-amure,36.41,93,140.73,53.1406,84,RU,12.75,1651882898
495,gat,53.49,100,34.7642,31.61,0,IL,2.91,1651882899
496,naryan-mar,31.12,98,53.087,67.6713,100,RU,14.52,1651882900
497,northam,52.12,97,-4.2167,51.0333,74,GB,6.69,1651882901
498,grand gaube,72.37,75,57.6608,-20.0064,41,MU,3.0,1651882903
499,chisec,82.63,81,-90.2833,15.8167,58,GT,5.73,1651882904
500,nicoya,80.67,79,-85.452,10.1483,86,CR,1.1,1651882904
501,stornoway,37.36,93,-6.3865,58.2093,100,GB,1.14,1651882906
502,hobyo,81.9,84,48.5268,5.3505,10,SO,18.97,1651882906
503,santa teresa,81.41,94,-66.6631,10.2341,100,VE,2.21,1651882907
504,shiyan,62.87,63,110.7781,32.6475,7,CN,10.09,1651882908
505,san policarpo,82.8,80,125.5072,12.1791,22,PH,12.39,1651882908
506,tanout,88.7,20,8.8879,14.9709,99,NE,8.59,1651882909
507,lithakia,54.77,81,20.8333,37.7167,26,GR,3.62,1651882910
508,sainte-thecle,46.45,44,-72.4991,46.8168,0,CA,6.04,1651882911
509,naantali,42.31,87,22.0243,60.4674,0,FI,8.05,1651882911
510,genhe,47.46,26,121.5167,50.7833,14,CN,9.17,1651882912
511,kawalu,75.04,93,108.2082,-7.3817,82,ID,0.94,1651882913
512,hovd,54.25,37,91.6419,48.0056,0,MN,2.91,1651882913
513,singaraja,82.62,77,115.0882,-8.112,74,ID,2.15,1651882914
514,kununurra,76.98,23,128.7333,-15.7667,0,AU,14.97,1651882699
515,grand-lahou,79.74,87,-5.0242,5.1367,94,CI,8.12,1651882915
516,seda,41.05,98,25.75,57.65,7,LV,4.32,1651882916
517,shimoda,62.1,83,138.95,34.6667,91,JP,12.44,1651882917
518,surgut,24.1,68,73.4167,61.25,20,RU,22.37,1651882918
519,walvis bay,52.75,93,14.5053,-22.9575,0,NA,5.75,1651882918
520,kargasok,28.31,82,80.8572,59.0556,83,RU,27.96,1651882919
521,vryburg,56.88,43,24.7284,-26.9566,2,ZA,5.06,1651882920
522,glendive,76.96,22,-104.7125,47.1053,40,US,13.8,1651882921
523,praia da vitoria,57.45,94,-27.0667,38.7333,20,PT,6.98,1651882921
524,boende,69.55,98,20.8667,-0.2167,99,CD,2.21,1651882922
525,tokur,32.22,92,132.9,53.1333,100,RU,0.45,1651882923
526,murgab,75.07,57,61.9714,37.4966,75,TM,4.61,1651882923
527,fukue,71.96,88,128.8419,32.6881,75,JP,3.44,1651882924
528,harer,60.03,75,42.1258,9.3094,23,ET,1.97,1651882925
529,south venice,80.62,85,-82.4243,27.0531,20,US,12.66,1651882926
530,manacapuru,77.59,90,-60.6206,-3.2997,56,BR,2.55,1651882926
531,adrar,83.32,14,-10.0711,20.5022,1,MR,9.01,1651882652
532,wanning,78.62,89,110.3967,18.8003,97,CN,2.8,1651882927
533,srednekolymsk,29.21,93,153.6833,67.45,100,RU,9.48,1651882928
534,caibarien,79.92,74,-79.4669,22.5206,3,CU,8.59,1651882929
535,kafanchan,72.77,83,8.3,9.5833,100,NG,2.19,1651882929
536,aquiraz,78.89,87,-38.3911,-3.9014,93,BR,12.17,1651882930
537,mattru,76.6,92,-11.8332,7.6244,25,SL,2.42,1651882931
538,desaguadero,46.31,43,-69.0417,-16.5656,0,PE,5.55,1651882932
539,zyuzelskiy,31.84,77,60.1331,56.4856,23,RU,6.76,1651882933
540,piacabucu,77.16,79,-36.4344,-10.4056,16,BR,7.56,1651882934
541,mineiros,62.58,71,-52.5511,-17.5694,0,BR,2.66,1651882934
542,aktau,54.18,72,51.2,43.65,33,KZ,23.17,1651882935
543,santa fe,65.66,87,-60.7,-31.6333,100,AR,1.99,1651882647
544,henties bay,58.8,88,14.2845,-22.116,0,NA,10.18,1651882936
545,merauke,81.5,80,140.3333,-8.4667,58,ID,9.98,1651882937
546,agadez,90.43,13,10.25,19.75,93,NE,9.89,1651882938
547,talcahuano,55.08,88,-73.1167,-36.7167,0,CL,12.66,1651882939
548,lazaro cardenas,80.8,64,-102.2,17.9583,69,MX,11.14,1651882940
549,port hardy,50.18,66,-127.4199,50.6996,40,CA,17.27,1651882940
550,beysehir,42.96,77,31.7246,37.6773,64,TR,10.71,1651882941
551,tautira,81.27,78,-149.15,-17.7333,35,PF,4.76,1651882942
552,mackay,77.68,81,149.2,-21.15,95,AU,9.8,1651882942
553,mumbwa,59.86,74,27.0619,-14.9783,2,ZM,4.07,1651882943
554,beidao,68.22,59,105.8933,34.5686,10,CN,7.11,1651882944
555,bud,57.63,90,-86.1758,39.447,97,US,12.12,1651882945
556,rio do sul,60.39,94,-49.6431,-27.2142,69,BR,2.48,1651882945
557,tolaga bay,61.83,69,178.3,-38.3667,12,NZ,2.62,1651882946
558,buala,84.72,74,159.5921,-8.145,83,SB,9.98,1651882947
559,hua hin,82.99,85,99.9588,12.5707,100,TH,2.3,1651882947
560,diffa,87.66,29,12.6113,13.3154,100,NE,4.38,1651882948
561,evensk,31.28,99,159.2333,61.95,100,RU,5.39,1651882949
562,alliance,53.13,95,-81.1059,40.9153,100,US,14.52,1651882949
563,dawei,78.33,89,98.2,14.0833,99,MM,4.18,1651882950
564,aginskoye,50.97,19,114.53,51.1,65,RU,11.68,1651882951
565,tshikapa,72.27,74,20.8,-6.4167,98,CD,1.79,1651882952
566,bowen,78.8,75,148.2333,-20.0167,85,AU,10.13,1651882952
567,kenai,48.87,55,-151.2583,60.5544,0,US,11.5,1651882953
568,uruzgan,66.76,22,66.0,32.8333,2,AF,6.29,1651882654
569,ternate,83.37,76,127.4,0.8,75,ID,2.71,1651882954
570,vradiyivka,45.41,58,30.5919,47.862,54,UA,7.43,1651882955
571,bushenyi,59.16,97,30.2114,-0.5853,99,UG,2.04,1651882955
572,suntar,42.75,83,117.6319,62.1444,83,RU,4.63,1651882957
573,ampanihy,72.12,71,44.75,-24.7,29,MG,6.49,1651882957
574,saravan,40.71,82,45.6483,39.7196,16,AM,8.37,1651882958
575,rio grande,59.63,74,-52.0986,-32.035,12,BR,3.71,1651882941
576,pacasmayo,66.42,83,-79.5714,-7.4006,37,PE,11.48,1651882959
577,tigil,38.5,96,158.6667,57.8,100,RU,3.58,1651882960
578,pacifica,61.65,88,-122.4869,37.6138,75,US,14.97,1651882960
579,taltal,61.88,87,-70.4833,-25.4,100,CL,6.49,1651882961
580,rock sound,78.73,72,-76.2,24.9,2,BS,5.66,1651882962
581,balaipungut,75.72,97,101.2833,1.05,100,ID,2.66,1651882963
582,akita,70.74,52,140.1167,39.7167,0,JP,8.05,1651882964
583,namwala,62.15,77,26.4384,-15.7504,43,ZM,3.74,1651882965
584,ler,81.43,61,30.1418,8.3018,85,SS,4.16,1651882966
585,suleja,75.54,77,7.1808,9.1758,100,NG,2.15,1651882966
586,padang,75.25,90,100.3543,-0.9492,100,ID,2.75,1651882967
587,acari,68.43,85,-74.6158,-15.4311,24,PE,3.31,1651882968
588,aksu,69.73,42,80.2644,41.1231,82,CN,11.12,1651882969
589,ban nahin,73.72,94,104.2122,18.2418,78,LA,2.53,1651882970
590,marsh harbour,79.0,75,-77.0636,26.5412,65,BS,4.36,1651882971
591,honavar,79.59,84,74.45,14.2833,72,IN,4.83,1651882971
592,ribeira brava,64.13,53,-17.0667,32.65,67,PT,4.18,1651882972
593,kashira,41.34,75,38.1669,54.8444,31,RU,8.08,1651882973
594,neiafu,83.08,74,-173.9833,-18.65,75,TO,6.91,1651882974
595,dire,90.43,24,-10.9667,12.2833,50,ML,3.96,1651882975
596,abha,62.85,48,42.5053,18.2164,0,SA,5.75,1651882976
597,nara,71.08,47,135.8049,34.6851,8,JP,1.61,1651882977
598,kiunga,84.83,72,141.2906,-6.1219,56,PG,2.89,1651882978
599,biltine,87.66,11,20.9167,14.5333,33,TD,14.63,1651882978
600,abonnema,77.0,87,6.7931,4.7084,97,NG,4.27,1651882979
601,saint anthony,69.19,26,-93.218,45.0205,0,US,11.5,1651882980
602,wasilla,54.75,43,-149.4394,61.5814,75,US,8.05,1651882799
603,birr,50.22,96,-7.9133,53.0914,34,IE,3.87,1651882981
604,hellvik,46.78,90,5.781,59.9156,95,NO,3.0,1651882982
605,nichinan,69.48,82,131.3667,31.6,84,JP,7.25,1651882983
606,porto novo,75.18,90,2.6036,6.4965,100,BJ,3.71,1651882766
607,sonoita,92.08,6,-112.8333,31.85,1,MX,14.83,1651882985
608,porto murtinho,66.15,67,-57.8825,-21.6989,14,BR,4.34,1651882985
609,nanortalik,34.11,99,-45.2371,60.1432,100,GL,2.33,1651882986
610,letpadan,81.05,76,95.75,17.7833,71,MM,5.41,1651882987
611,conceicao do araguaia,78.01,82,-49.2647,-8.2578,87,BR,3.94,1651882988
612,port lincoln,56.88,64,135.8667,-34.7333,22,AU,7.96,1651882989
613,flinders,60.24,55,150.8552,-34.5833,5,AU,7.0,1651882990
614,karasjok,38.5,100,25.5112,69.4719,100,NO,9.64,1651882990
615,firovo,41.85,88,33.7021,57.4814,57,RU,6.62,1651882991
616,novoagansk,21.42,93,76.6625,61.9449,100,RU,32.68,1651882992
617,kuala selangor,79.0,86,101.25,3.35,100,MY,10.16,1651882993
618,kamaishi,60.53,77,141.8833,39.2667,17,JP,13.58,1651882993
619,puri,79.32,89,85.85,19.8,3,IN,6.26,1651882994
620,eydhafushi,84.29,74,73.0708,5.1033,62,MV,12.86,1651882753
621,isangel,80.24,66,169.2667,-19.55,22,VU,18.37,1651882967
622,gamba,78.15,92,10.0,-2.65,100,GA,5.75,1651882995
623,sinop,44.19,98,34.8709,41.7711,100,TR,6.98,1651882996
624,remerschen,52.03,58,6.3517,49.4886,0,LU,8.05,1651882997
625,kuybysheve,41.25,58,36.6491,47.358,78,UA,9.6,1651882998
626,kabanjahe,64.85,96,98.4908,3.1001,100,ID,3.38,1651882998
627,kautokeino,37.87,94,23.0412,69.0125,100,NO,17.16,1651882999
628,tayu,80.02,83,111.0518,-6.5397,39,ID,5.82,1651883000
629,sisimiut,26.76,68,-53.6735,66.9395,11,GL,5.97,1651882749
630,sibiti,70.59,96,13.3499,-3.6819,100,CG,2.73,1651883001
631,passo fundo,53.15,81,-52.4067,-28.2628,100,BR,5.08,1651882783
632,waverley,54.23,69,28.2591,-25.7023,0,ZA,2.3,1651883002
633,seoul,61.14,82,126.9778,37.5683,75,KR,6.91,1651882931
